~Version ---------------------------------------------------
VERS.   2.0 : CWLS log ASCII Standard -VERSION 2.0
WRAP.    NO : One line per depth step
DLM . SPACE : Column Data Section Delimiter
~Well ------------------------------------------------------
STRT.ft 1000.00000 : START DEPTH
STOP.ft 1099.50000 : STOP DEPTH
STEP.ft    0.50000 : STEP
NULL.     -9999.25 : NULL VALUE
COMP.              : COMPANY
WELL.              : WELL
FLD .              : FIELD
LOC .              : LOCATION
PROV.              : PROVINCE
CNTY.              : COUNTY
STAT.              : STATE
CTRY.              : COUNTRY
SRVC.              : SERVICE COMPANY
DATE.              : DATE
UWI .              : UNIQUE WELL ID
API .              : API NUMBER
~Curve Information -----------------------------------------
DEPT.ft     : 
GR  .API    : 
RHOB.g/cm3  : 
~Params ----------------------------------------------------
~Other -----------------------------------------------------
~ASCII -----------------------------------------------------
 1000.00000   50.78684    2.37480
 1000.50000   47.62735    2.39493
 1001.00000   53.89640    2.36737
 1001.50000   55.38537    2.37725
 1002.00000   47.64778    2.32222
 1002.50000   -9999.25    2.36114
 1003.00000   55.80518    2.34418
 1003.50000   55.45170    2.33565
 1004.00000   57.33778    2.34148
 1004.50000   55.82334    2.35143
 1005.00000   62.01899   -9999.25
 1005.50000   62.71405    2.32986
 1006.00000   61.57770    2.35621
 1006.50000   65.75681    2.34517
 1007.00000   64.76715    2.34761
 1007.50000   61.76788    2.37358
 1008.00000   66.42228    2.36370
 1008.50000   63.39636    2.37915
 1009.00000   69.84966    2.34882
 1009.50000   67.98781    2.33757
 1010.00000   68.48593    2.34663
 1010.50000   67.87806    2.35564
 1011.00000   74.44401    2.35405
 1011.50000   71.14140    2.32862
 1012.00000   71.11960    2.35196
 1012.50000   72.11678    2.35461
 1013.00000   75.50577    2.40035
 1013.50000   75.70608    2.38755
 1014.00000   76.51233    2.33301
 1014.50000   77.19280    2.34445
 1015.00000   82.91174    2.32111
 1015.50000   75.81281    2.33879
 1016.00000   75.99801    2.35720
 1016.50000   75.55227    2.37535
 1017.00000   80.25541    2.33704
 1017.50000   82.16226    2.33899
 1018.00000   78.75445    2.30963
 1018.50000   76.84903    2.34988
 1019.00000   77.12086    2.33249
 1019.50000   81.72191    2.34381
 1020.00000   82.12630    2.33757
 1020.50000   81.60268    2.35398
 1021.00000   78.00344    2.32151
 1021.50000   80.67322    2.32818
 1022.00000   80.25363    2.40101
 1022.50000   80.43672    2.33363
 1023.00000   82.22259    2.33843
 1023.50000   80.05772    2.39815
 1024.00000   81.15385    2.42059
 1024.50000   79.00224    2.34018
 1025.00000   -9999.25    2.35741
 1025.50000   79.91810    2.37281
 1026.00000   73.19704    2.40179
 1026.50000   76.10986    2.34876
 1027.00000   75.11546    2.36490
 1027.50000   74.02634    2.38670
 1028.00000   74.49409    2.38122
 1028.50000   79.14259    2.36641
 1029.00000   71.36189    2.37270
 1029.50000   76.13094    2.34934
 1030.00000   67.41116    2.37356
 1030.50000   70.65764    2.37451
 1031.00000   71.32393    2.38602
 1031.50000   71.74063    2.37183
 1032.00000   71.23698    2.39394
 1032.50000   70.58193    2.40635
 1033.00000   66.23380    2.39082
 1033.50000   64.95281    2.39637
 1034.00000   67.95784    2.39203
 1034.50000   63.84058    2.39261
 1035.00000   59.60699    2.37983
 1035.50000   59.04516    2.40225
 1036.00000   58.69152    2.39564
 1036.50000   61.94260    2.44111
 1037.00000   59.87850    2.43238
 1037.50000   60.52416    2.41030
 1038.00000   56.17629    2.38898
 1038.50000   56.94536    2.38365
 1039.00000   57.36704    2.43138
 1039.50000   53.59402    2.41445
 1040.00000 9999.00000    2.42043
 1040.50000   50.64334    2.37756
 1041.00000   50.61994    2.43260
 1041.50000   49.66460    2.42474
 1042.00000   46.34598    2.39501
 1042.50000   50.54326    2.40935
 1043.00000   46.85027    2.42558
 1043.50000   47.50144    2.42287
 1044.00000   48.14301    2.41747
 1044.50000   47.31042    2.42270
 1045.00000   47.27210 -999.25000
 1045.50000   44.32241    2.43066
 1046.00000   42.72834    2.45841
 1046.50000   43.17944    2.37899
 1047.00000   37.81841    2.42690
 1047.50000   38.04367    2.43644
 1048.00000   37.96554    2.44006
 1048.50000   38.53568    2.42790
 1049.00000   42.36670    2.40136
 1049.50000   38.13797    2.44418
 1050.00000   39.45481    2.47324
 1050.50000   44.27038    2.40905
 1051.00000   39.13636    2.45799
 1051.50000   42.29963    2.43509
 1052.00000   37.21794    2.44133
 1052.50000   39.38413    2.42235
 1053.00000   37.18201    2.43753
 1053.50000   39.09653    2.47097
 1054.00000   42.76580    2.45732
 1054.50000   35.24355    2.48097
 1055.00000   41.95834    2.47047
 1055.50000   41.64618    2.45626
 1056.00000   39.47609    2.48285
 1056.50000   37.29278    2.45719
 1057.00000   42.26566    2.46536
 1057.50000   40.92398    2.44321
 1058.00000   43.71739    2.45075
 1058.50000   43.63426    2.43570
 1059.00000   48.96445    2.46961
 1059.50000   44.07106    2.42637
 1060.00000   42.38666    2.46564
 1060.50000   46.69935    2.44618
 1061.00000   47.56048    2.47337
 1061.50000   51.74976    2.46485
 1062.00000   50.98005    2.48609
 1062.50000   50.37665    2.46407
 1063.00000   54.55401    2.41774
 1063.50000   47.48045    2.44752
 1064.00000   50.03250    2.42504
 1064.50000   50.09716    2.43768
 1065.00000   52.65040    2.47778
 1065.50000   50.64816    2.45976
 1066.00000   57.65511    2.43244
 1066.50000   56.06505    2.42550
 1067.00000   53.30953    2.44573
 1067.50000   55.67114    2.42000
 1068.00000   60.65755    2.43011
 1068.50000   63.23122    2.44893
 1069.00000   67.70508    2.46491
 1069.50000   71.45023    2.45304
 1070.00000   64.93886    2.39405
 1070.50000   61.70477    2.44494
 1071.00000   59.24332    2.43922
 1071.50000   67.39457    2.44495
 1072.00000   65.08811    2.46784
 1072.50000   67.19755    2.39306
 1073.00000   67.50291    2.42127
 1073.50000   69.78907    2.44364
 1074.00000   74.25609    2.39889
 1074.50000   72.34837    2.45870
 1075.00000   72.19071    2.43518
 1075.50000   70.31738    2.44335
 1076.00000   69.12447    2.41357
 1076.50000   73.37841    2.43980
 1077.00000   75.32771    2.44342
 1077.50000   81.40586    2.42520
 1078.00000   77.06566    2.42370
 1078.50000   80.15414    2.42286
 1079.00000   76.19611    2.39862
 1079.50000   74.58302    2.41135
 1080.00000   75.64102    2.40964
 1080.50000   76.71288    2.41874
 1081.00000   85.57894    2.42944
 1081.50000   76.98638    2.38663
 1082.00000   82.17439    2.40365
 1082.50000   77.10939    2.43412
 1083.00000   82.72260    2.38796
 1083.50000   81.14264    2.38472
 1084.00000   79.52782    2.40354
 1084.50000   79.83541    2.41472
 1085.00000   77.90341    2.39640
 1085.50000   81.06641    2.42109
 1086.00000   78.17435    2.40999
 1086.50000   75.62475    2.40805
 1087.00000   75.18178    2.40066
 1087.50000   79.19986    2.43450
 1088.00000   83.03917    2.38224
 1088.50000   78.35593    2.34467
 1089.00000   77.04941    2.41525
 1089.50000   77.74868    2.37245
 1090.00000   80.25286    2.38223
 1090.50000   76.39582    2.40474
 1091.00000   73.86838    2.34501
 1091.50000   77.74577    2.35056
 1092.00000   75.00286    2.34212
 1092.50000   77.57926    2.35685
 1093.00000   72.74467    2.38015
 1093.50000   67.71405    2.38049
 1094.00000   66.44701    2.37421
 1094.50000   74.64193    2.33915
 1095.00000   73.97359    2.31996
 1095.50000   67.35547    2.36604
 1096.00000   65.81617    2.35435
 1096.50000   70.40437    2.37184
 1097.00000   61.73815    2.37561
 1097.50000   61.40171    2.36329
 1098.00000   65.03226    2.37473
 1098.50000   60.92710    2.36315
 1099.00000   61.09891    2.36826
 1099.50000   59.62453    2.34270
